ID_DIRECCION,ID_TIPO_VIA,NOMBRE_VIA_DIRECCION,ID_PREFIJO_1_1,NUMERO_VIA_GENERADORA_DIRECCION,ID_PREFIJO_1_2,NUMERO_PLACA_DIRECCION,DATO_COMPLEMENTARIO_DIRECCION,ID_CONTRATO,ID_CIUDAD,ID_DEPARTAMENTO,LONGITUD_DIRECCION,LATITUD_DIRECCION,ID_PREFIJO_2_1,ID_PREFIJO_2_2,ESTRATO,ID_COMPLEMENTO,DIRECCION_COMPLETA,DEPARTAMENTO,CIUDAD
52523,KM,8,NULL,8,NULL,4,NULL,132380,85001,85,-72.39520609960891,5.267638291031505,NULL,NULL,2,VR,"KILÓMETRO 8 # 8 4 VEREDA,YOPAL,CASANARE",CASANARE,YOPAL
52524,KM,8,NULL,8,NULL,8,NULL,151925,47001,47,0,0,NULL,NULL,1,BG,"KILÓMETRO 8 # 8 8 BODEGA,SANTA MARTA,MAGDALENA",MAGDALENA,SANTA MARTA
52525,KM,8,NULL,8,NULL,8,NULL,15183,54001,54,-72.49612659215927,7.9341101047614995,NULL,NULL,1,BG,"KILÓMETRO 8 # 8 8 BODEGA,CÚCUTA,NORTE DE SANTANDER",NORTE DE SANTANDER,CÚCUTA
52526,KM,8,NULL,8,NULL,8,NULL,15212,54001,54,-72.4961131811142,7.934062287156286,NULL,NULL,1,BG,"KILÓMETRO 8 # 8 8 BODEGA,CÚCUTA,NORTE DE SANTANDER",NORTE DE SANTANDER,CÚCUTA
52527,KM,8,NULL,8,NULL,8,NULL,108686,63001,63,-75.64482539892197,4.576709680328976,NULL,NULL,1,FNC,"KILÓMETRO 8 # 8 8 FINCA,ARMENIA,QUINDIO",QUINDIO,ARMENIA
52528,KM,8,NULL,8,NULL,8,NULL,101477,76130,76,-76.44322246313095,3.411154382552524,NULL,NULL,1,NULL,"KILÓMETRO 8 # 8 8,CANDELARIA,VALLE DEL CAUCA",VALLE DEL CAUCA,CANDELARIA
52530,KM,8,NULL,PAS,NULL,4,NULL,9141,11001,11,0,0,VIA,NULL,NULL,NULL,"KILÓMETRO 8 # PAS VIA 4,BOGOTÁ, D.C.,BOGOTÁ, D.C.","BOGOTÁ, D.C.","BOGOTÁ, D.C."
52531,KM,8,NULL,zip,VIA,1,NULL,11198,11001,11,-73.91495449701324,4.970444809149798,NULL,NULL,1,NULL,"KILÓMETRO 8 VIA # ZIP 1,BOGOTÁ, D.C.,BOGOTÁ, D.C.","BOGOTÁ, D.C.","BOGOTÁ, D.C."
52532,KM,8 AUTOPISTA AL LLANO,NULL,1,NULL,1,NULL,64702,11001,11,-73.85112762451172,4.306185798041362,NULL,NULL,1,NULL,"KILÓMETRO 8 AUTOPISTA AL LLANO # 1 1,BOGOTÁ, D.C.,BOGOTÁ, D.C.","BOGOTÁ, D.C.","BOGOTÁ, D.C."
52533,KM,8 MAMONAL,NULL,1,NULL,1,NULL,119641,13001,13,-75.52077457308769,10.386490876867352,NULL,NULL,1,NULL,"KILÓMETRO 8 MAMONAL # 1 1,CARTAGENA,BOLÍVAR",BOLÍVAR,CARTAGENA
52534,KM,8 TRONCAL DEL CARIBE,NULL,1,NULL,1,NULL,72847,47001,47,-74.1946904361248,11.224702219389783,NULL,NULL,NULL,NULL,"KILÓMETRO 8 TRONCAL DEL CARIBE # 1 1,SANTA MARTA,MAGDALENA",MAGDALENA,SANTA MARTA
52535,KM,8 VDA REFORMA,NULL,1,NULL,1,NULL,152113,50001,50,0,0,NULL,NULL,1,NULL,"KILÓMETRO 8 VDA REFORMA # 1 1,VILLAVICENCIO,META",META,VILLAVICENCIO
52536,KM,"8 VIA ARMENIA ",S,8,S,1,NULL,10708,66001,66,-75.69442749023438,4.718777551249855,NULL,NULL,4,VR,"KILÓMETRO 8 VIA ARMENIA SUR S # 8 1 VEREDA,PEREIRA,RISARALDA",RISARALDA,PEREIRA
52537,KM,8 VIA BOQUILLA TUBARA,NULL,1,NULL,1,NULL,119603,08001,08,-74.7895185649395,11.013711493305895,NULL,NULL,1,NULL,"KILÓMETRO 8 VIA BOQUILLA TUBARA # 1 1,BARRANQUILLA,ATLÁNTICO",ATLÁNTICO,BARRANQUILLA
52538,KM,8 VIA CERRITOS SECTOR OASIS,NULL,1,NULL,1,NULL,3820,66001,66,0,0,NULL,NULL,5,LC,"KILÓMETRO 8 VIA CERRITOS SECTOR OASIS # 1 1 LOCAL,PEREIRA,RISARALDA",RISARALDA,PEREIRA
52539,KM,8 VIA LA VEGA,NULL,1,NULL,1,6,185326,25175,25,-74.35678530000001,4.9839175000000004,NULL,NULL,4,BG,"KILÓMETRO 8 VIA LA VEGA # 1 1 BODEGA 6,CHÍA,CUNDINAMARCA",CUNDINAMARCA,CHÍA
52540,KM,8 VIA MAMONAL,NULL,1,NULL,1,NULL,116647,13001,13,-75.50929471850395,10.364476474560112,NULL,NULL,1,NULL,"KILÓMETRO 8 VIA MAMONAL # 1 1,CARTAGENA,BOLÍVAR",BOLÍVAR,CARTAGENA
52541,KM,8 VIA MANIZALEZ,NULL,1,NULL,1,NULL,148497,17001,17,-75.5047692359949,5.073099530631357,NULL,NULL,1,NULL,"KILÓMETRO 8 VIA MANIZALEZ # 1 1,MANIZALES,CALDAS",CALDAS,MANIZALES
52542,KM,8 via nemocon,NULL,1,NULL,1,NULL,103157,25899,25,-73.97238922014367,5.0340723271466254,NULL,NULL,3,NULL,"KILÓMETRO 8 VIA NEMOCON # 1 1,ZIPAQUIRÁ,CUNDINAMARCA",CUNDINAMARCA,ZIPAQUIRÁ
52543,KM,8 VIA PUERTO COLOMBIA,NULL,1,NULL,1,NULL,114945,08573,08,-74.95113775134087,11.008677523807497,NULL,NULL,1,NULL,"KILÓMETRO 8 VIA PUERTO COLOMBIA # 1 1,PUERTO COLOMBIA,ATLÁNTICO",ATLÁNTICO,PUERTO COLOMBIA
